name,latitude,longitude,tag,score
정부서울청사,37.5748454,126.9754214,중앙행정기관,1
국방부,37.5336638,126.9776003,중앙행정기관,1
대검찰청,37.4938474,127.0050471,중앙행정기관,1
경찰청,37.56359,126.9673513,중앙행정기관,1
기상청,37.4937629,126.9167512,중앙행정기관,1
