name,latitude,longitude,tag,score
KT 혜화국사,37.577188,127.001504,통신망,1
KT 구로국사,37.481017,126.902866,통신망,1
LGU+상암교환국,37.582549,126.886486,통신망,1
LGU+ 마곡국사,37.561998,126.834665,통신망,1
SK브로드밴드동작종합정보센터,37.496471,126.915051,통신망,1
SKT 보라매사옥 ,37.492235,126.926127,통신망,1
SKT 성수사옥,37.546313,127.062777,통신망,1
