name,latitude,longitude,tag,score
경복궁,37.579617,126.977041,국가유산,1
창덕궁,37.5794309,126.9910426,국가유산,1
창경궁,37.5788149,126.9949298,국가유산,1
덕수궁(숭례문 포함),37.5658862,126.9749017,국가유산,1
종묘,37.5746313,126.9938158,국가유산,1
